{
  "type": "FeatureCollection",
  "name": "origins",
  "crs": {
    "type": "name",
    "properties": {
      "name": "urn:ogc:def:crs:OGC:1.3:CRS84"
    }
  },
  "features": [
    {
      "type": "Feature",
      "properties": {
        "name": "Antwerp",
        "type": "port"
      },
      "geometry": {
        "type": "Point",
        "coordinates": [
          4.4025,
          51.2213
        ]
      }
    },
    {
      "type": "Feature",
      "properties": {
        "name": "Bremerhaven",
        "type": "port"
      },
      "geometry": {
        "type": "Point",
        "coordinates": [
          8.5767,
          53.5396
        ]
      }
    },
    {
      "type": "Feature",
      "properties": {
        "name": "Busan",
        "type": "port"
      },
      "geometry": {
        "type": "Point",
        "coordinates": [
          129.0756,
          35.1028
        ]
      }
    },
    {
      "type": "Feature",
      "properties": {
        "name": "Felixstowe",
        "type": "port"
      },
      "geometry": {
        "type": "Point",
        "coordinates": [
          1.3515,
          51.9617
        ]
      }
    },
    {
      "type": "Feature",
      "properties": {
        "name": "Jebel Ali",
        "type": "port"
      },
      "geometry": {
        "type": "Point",
        "coordinates": [
          55.0279,
          24.9922
        ]
      }
    },
    {
      "type": "Feature",
      "properties": {
        "name": "Mundra",
        "type": "port"
      },
      "geometry": {
        "type": "Point",
        "coordinates": [
          69.7167,
          22.8167
        ]
      }
    },
    {
      "type": "Feature",
      "properties": {
        "name": "Rotterdam",
        "type": "port"
      },
      "geometry": {
        "type": "Point",
        "coordinates": [
          4.4777,
          51.9225
        ]
      }
    }
  ]
}